[
    {
        "name": "Matthew",
        "desc": "Built this to learn ReactJS",
        "lat": "48.856614",
        "lng": "2.3522219"
    },
    {
        "name": "Tim Wang",
        "desc": "Nobody knows what he is doing",
        "lat": "48.123",
        "lng": "2.222"
    },
    {
        "name": "Linda Chen",
        "desc": "Is an egg slut",
        "lat": "48.9132",
        "lng": "2.543"
    },
    {
        "name": "Tony Stark",
        "desc": "Told the world that he is Ironman",
        "lat": "49.000001",
        "lng": "2.101"
    },
    {
        "name": "Batman",
        "desc": "He's the Batman",
        "lat": "49.5123",
        "lng": "1.999999"
    }
]